{"type":"FeatureCollection","features":[{"type":"Feature","geometry":{"type":"Point","coordinates":[-86.142751,39.869024]},"properties":{"lat":39.869024,"lng":-86.142751,"name":"3 Sisters Cafe","outletType":{"id":4,"name":"Veg-Friendly Restaurant","abbreviation":"VFr"},"happyCowUrl":"3-sisters-cafe-indianapolis-5900"}},{"type":"Feature","geometry":{"type":"Point","coordinates":[-86.100289,39.910055]},"properties":{"lat":39.910055,"lng":-86.100289,"name":"Bd's Mongolian Grill","outletType":{"id":4,"name":"Veg-Friendly Restaurant","abbreviation":"VFr"},"happyCowUrl":"bds-mongolian-grill-indianapolis-34689"}},{"type":"Feature","geometry":{"type":"Point","coordinates":[-86.142168,39.872184]},"properties":{"lat":39.872184,"lng":-86.142168,"name":"Broad Ripple Ice Cream Station","outletType":{"id":1,"name":"Stores 'n' More","abbreviation":"S"},"happyCowUrl":"broad-ripple-ice-cream-station-indianapolis-60489"}},{"type":"Feature","geometry":{"type":"Point","coordinates":[-86.14339,39.87347]},"properties":{"lat":39.87347,"lng":-86.14339,"name":"Broadripple Brewpub","outletType":{"id":4,"name":"Veg-Friendly Restaurant","abbreviation":"VFr"},"happyCowUrl":"broadripple-brewpub-indianapolis-8137"}},{"type":"Feature","geometry":{"type":"Point","coordinates":[-86.111152,39.914065]},"properties":{"lat":39.914065,"lng":-86.111152,"name":"Chipotle","outletType":{"id":4,"name":"Veg-Friendly Restaurant","abbreviation":"VFr"},"happyCowUrl":"chipotle-indianapolis-43088"}},{"type":"Feature","geometry":{"type":"Point","coordinates":[-85.930326,39.994824]},"properties":{"lat":39.994824,"lng":-85.930326,"name":"Earth Fare","outletType":{"id":1,"name":"Stores 'n' More","abbreviation":"S"},"happyCowUrl":"earth-fare-noblesville-42997"}},{"type":"Feature","geometry":{"type":"Point","coordinates":[-86.126805,39.958577]},"properties":{"lat":39.958577,"lng":-86.126805,"name":"Earth Fare","outletType":{"id":1,"name":"Stores 'n' More","abbreviation":"S"},"happyCowUrl":"earth-fare-carmel-42998"}},{"type":"Feature","geometry":{"type":"Point","coordinates":[-86.143859,39.874111]},"properties":{"lat":39.874111,"lng":-86.143859,"name":"Ezra's Enlightened Cafe","outletType":{"id":2,"name":"Vegetarian Restaurant","abbreviation":"Vge"},"happyCowUrl":"ezras-enlightened-cafe-indianapolis-50895"}},{"type":"Feature","geometry":{"type":"Point","coordinates":[-86.041134,39.95155]},"properties":{"lat":39.95155,"lng":-86.041134,"name":"India Sizzling","outletType":{"id":4,"name":"Veg-Friendly Restaurant","abbreviation":"VFr"},"happyCowUrl":"india-sizzling-fishers-26595"}},{"type":"Feature","geometry":{"type":"Point","coordinates":[-86.127848,39.971415]},"properties":{"lat":39.971415,"lng":-86.127848,"name":"Jamaican Reggae Grill","outletType":{"id":4,"name":"Veg-Friendly Restaurant","abbreviation":"VFr"},"happyCowUrl":"jamaican-reggae-grill-carmel-59938"}},{"type":"Feature","geometry":{"type":"Point","coordinates":[-86.14527,39.8693]},"properties":{"lat":39.8693,"lng":-86.14527,"name":"Naked Tchopstix","outletType":{"id":4,"name":"Veg-Friendly Restaurant","abbreviation":"VFr"},"happyCowUrl":"naked-tchopstix-indianapolis-3333"}},{"type":"Feature","geometry":{"type":"Point","coordinates":[-86.100436,39.925653]},"properties":{"lat":39.925653,"lng":-86.100436,"name":"Naked Tchopstix - 96th St","outletType":{"id":4,"name":"Veg-Friendly Restaurant","abbreviation":"VFr"},"happyCowUrl":"naked-tchopstix-indianapolis-42364"}},{"type":"Feature","geometry":{"type":"Point","coordinates":[-86.20681,39.91266]},"properties":{"lat":39.91266,"lng":-86.20681,"name":"Nature's Market","outletType":{"id":1,"name":"Stores 'n' More","abbreviation":"S"},"happyCowUrl":"natures-market-indianapolis-11593"}},{"type":"Feature","geometry":{"type":"Point","coordinates":[-86.06706,39.90531]},"properties":{"lat":39.90531,"lng":-86.06706,"name":"Nature's Pharm - Castleton","outletType":{"id":1,"name":"Stores 'n' More","abbreviation":"S"},"happyCowUrl":"natures-pharm-indianapolis-13537"}},{"type":"Feature","geometry":{"type":"Point","coordinates":[-86.142163,39.869696]},"properties":{"lat":39.869696,"lng":-86.142163,"name":"Sabbatical","outletType":{"id":4,"name":"Veg-Friendly Restaurant","abbreviation":"VFr"},"happyCowUrl":"sabbatical-indianapolis-34561"}},{"type":"Feature","geometry":{"type":"Point","coordinates":[-86.146715,39.846919]},"properties":{"lat":39.846919,"lng":-86.146715,"name":"Sobro Cafe","outletType":{"id":4,"name":"Veg-Friendly Restaurant","abbreviation":"VFr"},"happyCowUrl":"sobro-cafe-indianapolis-30317"}},{"type":"Feature","geometry":{"type":"Point","coordinates":[-86.128384,39.971932]},"properties":{"lat":39.971932,"lng":-86.128384,"name":"SoHo Cafe and Gallery","outletType":{"id":4,"name":"Veg-Friendly Restaurant","abbreviation":"VFr"},"happyCowUrl":"soho-cafe-and-gallery-carmel-53545"}},{"type":"Feature","geometry":{"type":"Point","coordinates":[-86.14057,39.87107]},"properties":{"lat":39.87107,"lng":-86.14057,"name":"Thai Cafe","outletType":{"id":4,"name":"Veg-Friendly Restaurant","abbreviation":"VFr"},"happyCowUrl":"thai-cafe-indianapolis-2912"}},{"type":"Feature","geometry":{"type":"Point","coordinates":[-86.0769,39.90502]},"properties":{"lat":39.90502,"lng":-86.0769,"name":"Thai Taste","outletType":{"id":4,"name":"Veg-Friendly Restaurant","abbreviation":"VFr"},"happyCowUrl":"thai-taste-indianapolis-18534"}},{"type":"Feature","geometry":{"type":"Point","coordinates":[-86.159499,39.854578]},"properties":{"lat":39.854578,"lng":-86.159499,"name":"The Flying Cupcake","outletType":{"id":1,"name":"Stores 'n' More","abbreviation":"S"},"happyCowUrl":"the-flying-cupcake-indianapolis-38774"}},{"type":"Feature","geometry":{"type":"Point","coordinates":[-86.126899,39.96847]},"properties":{"lat":39.96847,"lng":-86.126899,"name":"The Flying Cupcake","outletType":{"id":1,"name":"Stores 'n' More","abbreviation":"S"},"happyCowUrl":"the-flying-cupcake-carmel-42341"}},{"type":"Feature","geometry":{"type":"Point","coordinates":[-86.14288,39.87289]},"properties":{"lat":39.87289,"lng":-86.14288,"name":"The Good Earth Natural Foods","outletType":{"id":1,"name":"Stores 'n' More","abbreviation":"S"},"happyCowUrl":"good-earth-natural-foods-indianapolis-1984"}},{"type":"Feature","geometry":{"type":"Point","coordinates":[-86.145514,39.843417]},"properties":{"lat":39.843417,"lng":-86.145514,"name":"The Sinking Ship","outletType":{"id":4,"name":"Veg-Friendly Restaurant","abbreviation":"VFr"},"happyCowUrl":"the-sinking-ship-indianapolis-35796"}},{"type":"Feature","geometry":{"type":"Point","coordinates":[-86.073842,39.905052]},"properties":{"lat":39.905052,"lng":-86.073842,"name":"Trader Joe's - Castleton","outletType":{"id":1,"name":"Stores 'n' More","abbreviation":"S"},"happyCowUrl":"trader-joes-castleton-indianapolis-22309"}},{"type":"Feature","geometry":{"type":"Point","coordinates":[-86.212067,39.912403]},"properties":{"lat":39.912403,"lng":-86.212067,"name":"Trader Joe's - W 86th","outletType":{"id":1,"name":"Stores 'n' More","abbreviation":"S"},"happyCowUrl":"trader-joes-w-86th-indianapolis-22310"}},{"type":"Feature","geometry":{"type":"Point","coordinates":[-86.181331,39.912988]},"properties":{"lat":39.912988,"lng":-86.181331,"name":"Tulip Noir Cafe","outletType":{"id":4,"name":"Veg-Friendly Restaurant","abbreviation":"VFr"},"happyCowUrl":"tulip-noir-cafe-indianapolis-40028"}},{"type":"Feature","geometry":{"type":"Point","coordinates":[-86.145871,39.851277]},"properties":{"lat":39.851277,"lng":-86.145871,"name":"Twenty Tap","outletType":{"id":4,"name":"Veg-Friendly Restaurant","abbreviation":"VFr"},"happyCowUrl":"twenty-tap-indianapolis-38754"}},{"type":"Feature","geometry":{"type":"Point","coordinates":[-86.128785,39.978629]},"properties":{"lat":39.978629,"lng":-86.128785,"name":"Vitality Bowls","outletType":{"id":4,"name":"Veg-Friendly Restaurant","abbreviation":"VFr"},"happyCowUrl":"vitality-bowls-carmel-55818"}},{"type":"Feature","geometry":{"type":"Point","coordinates":[-86.096751,39.86823]},"properties":{"lat":39.86823,"lng":-86.096751,"name":"WB Pizza - Allisonville Rd","outletType":{"id":4,"name":"Veg-Friendly Restaurant","abbreviation":"VFr"},"happyCowUrl":"wb-pizza-indianapolis-25317"}},{"type":"Feature","geometry":{"type":"Point","coordinates":[-86.137157,39.914038]},"properties":{"lat":39.914038,"lng":-86.137157,"name":"Whole Foods Market","outletType":{"id":1,"name":"Stores 'n' More","abbreviation":"S"},"happyCowUrl":"whole-foods-market-indianapolis-1985"}},{"type":"Feature","geometry":{"type":"Point","coordinates":[-86.15074,39.99969]},"properties":{"lat":39.99969,"lng":-86.15074,"name":"Whole Foods Market","outletType":{"id":1,"name":"Stores 'n' More","abbreviation":"S"},"happyCowUrl":"whole-foods-market-carmel-4863"}},{"type":"Feature","geometry":{"type":"Point","coordinates":[-86.150525,39.972134]},"properties":{"lat":39.972134,"lng":-86.150525,"name":"Yat's","outletType":{"id":4,"name":"Veg-Friendly Restaurant","abbreviation":"VFr"},"happyCowUrl":"yats-carmel-50606"}},{"type":"Feature","geometry":{"type":"Point","coordinates":[-86.145482,39.850794]},"properties":{"lat":39.850794,"lng":-86.145482,"name":"Yats - College","outletType":{"id":4,"name":"Veg-Friendly Restaurant","abbreviation":"VFr"},"happyCowUrl":"yats-college-indianapolis-7447"}}]}